{"type":"FeatureCollection","features":[{"geometry": {"type": "Point", "coordinates": [-90.94471342700001, 29.629160266999975]}, "type": "Feature", "id": 1, "properties": {"": "M", "city": "Gibson", "name": "Bob's Bayou Black Marina Inc.", "zip": "70356", "url": "http://www.bayoublackmarina.com/", "photo": "http://www.bayoublackmarina.com/images/Dcp_0004.jpg", "zipcode": 70356.0, "longitude": -90.94471343, "phone": "(985) 575-2315", "state": "LA", "street": "251 Marina Dr.", "latitude": 29.62916027, "image_tag": "<img src=\"http://www.bayoublackmarina.com/images/Dcp_0004.jpg\" height=\"160\" width=\"250\" />"}},{"geometry": {"type": "Point", "coordinates": [-89.798879876, 30.21466558100002]}, "type": "Feature", "id": 2, "properties": {"": "M", "city": "Slidell", "name": "The Dock at Slidell", "zip": "70458", "url": "http://thedockslidell.weebly.com/", "photo": "http://thedockslidell.weebly.com/uploads/1/1/6/5/11655934/1339787122.jpg", "zipcode": 70458.0, "longitude": -89.79887988, "phone": "(985) 645-3625", "state": "LA", "street": "118 Harbor View Court", "latitude": 30.21466558, "image_tag": "<img src=\"http://thedockslidell.weebly.com/uploads/1/1/6/5/11655934/1339787122.jpg\" height=\"160\" width=\"250\" />"}},{"geometry": {"type": "Point", "coordinates": [-90.714876634, 29.30922059599999]}, "type": "Feature", "id": 3, "properties": {"": "M", "city": "Dulac", "name": "Four Point Landing", "zip": "70353", "zipcode": 70353.0, "longitude": -90.71487663, "phone": "(985) 563-2878", "state": "LA", "street": "1171 Four Point Rd.", "latitude": 29.3092206}},{"geometry": {"type": "Point", "coordinates": [-90.71157803599999, 29.599009265000007]}, "type": "Feature", "id": 4, "properties": {"": "M", "city": "Houma", "name": "Houma Downtown Marina", "zip": "70361", "url": "http://www.tpcg.org/view.php?f=marina", "photo": "http://www.tpcg.org/marina/images/marina.jpg", "zipcode": 70361.0, "longitude": -90.71157804, "phone": "(985) 873-6408", "state": "LA", "street": "P. O. Box 6097", "latitude": 29.59900927, "image_tag": "<img src=\"http://www.tpcg.org/marina/images/marina.jpg\" height=\"160\" width=\"250\" />"}},{"geometry": {"type": "Point", "coordinates": [-90.12619841700001, 30.41707242299998]}, "type": "Feature", "id": 5, "properties": {"": "M", "city": "Mandeville", "name": "Marina Beau Ch\u00eane", "zip": "70471", "zipcode": 70471.0, "longitude": -90.12619842, "phone": "(985) 845-3454", "state": "LA", "street": "900 Marina Blvd", "latitude": 30.41707242}},{"geometry": {"type": "Point", "coordinates": [-90.15277865600001, 30.402532365000013]}, "type": "Feature", "id": 6, "properties": {"": "M", "city": "Madisonville", "name": "Marina Del Ray", "zip": "70447", "url": "http://www.visitmarinadelrey.com/", "photo": "http://www.visitmarinadelrey.com/files/images/banner_marina_image_934ccddf.jpg", "zipcode": 70447.0, "longitude": -90.15277866, "phone": "(985) 845-4474", "state": "LA", "street": "100 Marina Del Ray Dr.", "latitude": 30.40253236, "image_tag": "<img src=\"http://www.visitmarinadelrey.com/files/images/banner_marina_image_934ccddf.jpg\" height=\"160\" width=\"250\" />"}},{"geometry": {"type": "Point", "coordinates": [-90.11562049700001, 30.021754735000002]}, "type": "Feature", "id": 7, "properties": {"": "M", "city": "New Orleans", "name": "Orleans Marina", "zip": "70124", "url": "http://www.marinasinneworleans.com/OM.htm", "photo": "http://www.marinasinneworleans.com/images/orlmar171.gif", "zipcode": 70124.0, "longitude": -90.1156205, "phone": "(504) 288-2351", "state": "LA", "street": "221 Lake Marina Ave.", "latitude": 30.02175473, "image_tag": "<img src=\"http://www.marinasinneworleans.com/images/orlmar171.gif\" height=\"160\" width=\"250\" />"}},{"geometry": {"type": "Point", "coordinates": [-90.01608704400002, 30.037064094000016]}, "type": "Feature", "id": 8, "properties": {"": "M", "city": "New Orleans", "name": "South Shore Harbor Marina", "zip": "70126", "url": "http://www.marinasinneworleans.com/SSH.htm", "photo": "http://www.marinasinneworleans.com/images/ssh171.gif", "zipcode": 70126.0, "longitude": -90.01608704, "phone": "(504) 245-3152", "state": "LA", "street": "6701 Stars and Stripes Blvd.", "latitude": 30.03706409, "image_tag": "<img src=\"http://www.marinasinneworleans.com/images/ssh171.gif\" height=\"160\" width=\"250\" />"}},{"geometry": {"type": "Point", "coordinates": [-90.73015939499999, 29.34263955900002]}, "type": "Feature", "id": 9, "properties": {"": "M", "city": "Dulac", "name": "T-Irv's", "zip": "70353", "zipcode": 70353.0, "longitude": -90.73015939, "phone": "(985) 563-4295", "state": "LA", "street": "9499 Grand Caillou Rd.", "latitude": 29.34263956}},{"geometry": {"type": "Point", "coordinates": [-89.95091869499998, 29.63506571900001]}, "type": "Feature", "id": 10, "properties": {"": "M", "city": "Port Sulphur", "name": "Myrtle Grove Marina", "zip": "70083", "url": "http://www.myrtlegrovemarina.com/", "photo": "http://www.myrtlegrovemarina.com/templates/Linea/img/company_name.gif", "zipcode": 70083.0, "longitude": -89.9509187, "phone": "(504) 912-1520", "state": "LA", "street": "161 Marina Rd.", "latitude": 29.63506572, "image_tag": "<img src=\"http://www.myrtlegrovemarina.com/templates/Linea/img/company_name.gif\" height=\"160\" width=\"250\" />"}},{"geometry": {"type": "Point", "coordinates": [-89.60156617199999, 29.38562168300001]}, "type": "Feature", "id": 11, "properties": {"": "M", "city": "Empire", "name": "The Delta Marina", "zip": "70050", "url": "http://www.thedeltamarina.com/", "photo": "http://www.thedeltamarina.com/images/gallery/thumb/cont2090605041033.jpg", "zipcode": 70050.0, "longitude": -89.60156617, "phone": "(504) 657-5116", "state": "LA", "street": "317 Rose Marie Dr.", "latitude": 29.38562168, "image_tag": "<img src=\"http://www.thedeltamarina.com/images/gallery/thumb/cont2090605041033.jpg\" height=\"160\" width=\"250\" />"}},{"geometry": {"type": "Point", "coordinates": [-93.23876166399998, 30.20405390899998]}, "type": "Feature", "id": 12, "properties": {"": "M", "city": "Lake Charles", "name": "Bowtie Marina", "zip": "70601", "zipcode": 70601.0, "longitude": -93.23876166, "phone": "(337) 478-0130", "state": "LA", "street": "1245 Giovanni St.", "latitude": 30.20405391}},{"geometry": {"type": "Point", "coordinates": [-90.18181025000001, 29.16050265199999]}, "type": "Feature", "id": 13, "properties": {"": "M", "city": "Golden Meadow", "name": "Moran's Marina", "zip": "70357", "url": "http://www.moransmarina.com/", "photo": "http://cajunmadecharters.com/cajun_made.jpg", "zipcode": 70357.0, "longitude": -90.18181025, "phone": "(985) 396-2727", "state": "LA", "street": "27900 Highway 1", "latitude": 29.16050265, "image_tag": "<img src=\"http://cajunmadecharters.com/cajun_made.jpg\" height=\"160\" width=\"250\" />"}}]}