{"type":"FeatureCollection","features":[{"geometry": {"type": "Point", "coordinates": [-96.53416554699999, 33.049578999999994]}, "type": "Feature", "id": 1, "properties": {"": "M", "city": "Wylie", "name": "Anchor Bay Marina \u2013 Lake Lavon", "zip": "75098", "url": "https://www.facebook.com/pages/Anchor-Bay-Marina/115370238488994", "zipcode": 75098.0, "longitude": -96.53416555, "phone": "(972) 429-1852", "state": "TX", "street": "2200 St. Paul Road", "latitude": 33.049579}},{"geometry": {"type": "Point", "coordinates": [-97.878351248, 30.43405874000001]}, "type": "Feature", "id": 2, "properties": {"": "M", "city": "Austin", "name": "Anderson Mill Marina - Lake Travis", "zip": "78641", "url": "http://www.marinequest.net/andersonmills/", "photo": "http://www.marinequest.net/images/anderson_mill_marina/AMMarial.jpg", "zipcode": 78641.0, "longitude": -97.87835125, "phone": "(512) 266-1559", "state": "TX", "street": "13993 FM 2769", "latitude": 30.43405874, "image_tag": "<img src=\"http://www.marinequest.net/images/anderson_mill_marina/AMMarial.jpg\" height=\"160\" width=\"250\" />"}},{"geometry": {"type": "Point", "coordinates": [-97.92179395599999, 30.421590708999986]}, "type": "Feature", "id": 3, "properties": {"": "M", "city": "Austin", "name": "Austin Yacht Club - Lake Travis", "zip": "78734", "url": "http://www.austinyachtclub.org/", "photo": "http://austinyachtclub.net/info/HomePageTesting/lasermarkroundingLGcbr.jpg", "zipcode": 78734.0, "longitude": -97.92179396, "phone": "(512) 266-1336", "state": "TX", "street": "5906 Beacon Drive", "latitude": 30.42159071, "image_tag": "<img src=\"http://austinyachtclub.net/info/HomePageTesting/lasermarkroundingLGcbr.jpg\" height=\"160\" width=\"250\" />"}},{"geometry": {"type": "Point", "coordinates": [-96.517066231, 32.873800112000026]}, "type": "Feature", "id": 4, "properties": {"": "M", "city": "Rowlett", "name": "Bayview Marina - Lake Ray Hubbard", "zip": "75088", "url": "http://www.bayview-marina.com/", "photo": "http://dlcache.com/thumbs/642/bayview-marina.com.gif", "zipcode": 75088.0, "longitude": -96.51706623, "phone": "(972) 412-1977", "state": "TX", "street": "600 Cooke Dr. Suite 300", "latitude": 32.87380011, "image_tag": "<img src=\"http://dlcache.com/thumbs/642/bayview-marina.com.gif\" height=\"160\" width=\"250\" />"}},{"geometry": {"type": "Point", "coordinates": [-97.74931258800001, 32.47917521099998]}, "type": "Feature", "id": 5, "properties": {"": "M", "city": "Granbury", "name": "Bentwater (POA) Marina - Lake Granbury", "zip": "76049", "url": "http://www.bentwater.org", "zipcode": 76049.0, "longitude": -97.74931259, "phone": "(817) 598-5874", "state": "TX", "street": "1409 Bentwater Parkway", "latitude": 32.47917521}},{"geometry": {"type": "Point", "coordinates": [-95.626973916, 30.424821463]}, "type": "Feature", "id": 6, "properties": {"": "M", "city": "Montgomery", "name": "Bentwater Yacht & Country Club - Lake Conroe", "zip": "77356", "url": "http://www.bentwater.com/marina.html", "photo": "http://imavex.vo.llnwd.net/o18/clients/bentwater/images/header_pics/private-marina.jpg", "zipcode": 77356.0, "longitude": -95.62697392, "phone": "(281) 350-9898", "state": "TX", "street": "800 Bentwater Drive", "latitude": 30.42482146, "image_tag": "<img src=\"http://imavex.vo.llnwd.net/o18/clients/bentwater/images/header_pics/private-marina.jpg\" height=\"160\" width=\"250\" />"}},{"geometry": {"type": "Point", "coordinates": [-98.49094508600001, 32.84181278400001]}, "type": "Feature", "id": 7, "properties": {"": "M", "city": "Strawn", "name": "Bluff Creek Marina - Possum Kingdom Lake", "zip": "76475", "url": "http://www.bluffcreekmarina.com/", "photo": "http://cdn-5.psndealer.com/e2/dealersite/images/bluffcreekmarina/header.jpg", "zipcode": 76475.0, "longitude": -98.49094509, "phone": "(940) 779-3911", "state": "TX", "street": "1119 Marina Point Drive", "latitude": 32.84181278, "image_tag": "<img src=\"http://cdn-5.psndealer.com/e2/dealersite/images/bluffcreekmarina/header.jpg\" height=\"160\" width=\"250\" />"}},{"geometry": {"type": "Point", "coordinates": [-98.52884085300002, 32.89481884100002]}, "type": "Feature", "id": 8, "properties": {"": "M", "city": "Graham", "name": "Breakers on PK Lake Inc. (The) - Possum Kingdom", "zip": "76450", "url": "http://thebreakersonpk.com/slips.asp", "photo": "http://thebreakersonpk.com/images/slips3.jpg", "zipcode": 76450.0, "longitude": -98.52884085, "phone": "(940) 549-6470", "state": "TX", "street": "5001 Camp David Road", "latitude": 32.89481884, "image_tag": "<img src=\"http://thebreakersonpk.com/images/slips3.jpg\" height=\"160\" width=\"250\" />"}},{"geometry": {"type": "Point", "coordinates": [-98.04597602899997, 30.417050682000024]}, "type": "Feature", "id": 9, "properties": {"": "M", "city": "Briarcliff", "name": "Briarcliff Marina - Lake Travis", "zip": "78669", "url": "http://www.briarcliffmarina.com/index.htm", "photo": "http://www.briarcliffmarina.com/images/marinasign.jpg", "zipcode": 78669.0, "longitude": -98.04597603, "phone": "(512) 264-2666", "state": "TX", "street": "406 Sleat Drive", "latitude": 30.41705068, "image_tag": "<img src=\"http://www.briarcliffmarina.com/images/marinasign.jpg\" height=\"160\" width=\"250\" />"}},{"geometry": {"type": "Point", "coordinates": [-98.23340764099999, 29.900307483000006]}, "type": "Feature", "id": 10, "properties": {"": "M", "city": "Canyon Lake", "name": "Canyon Lake Marina - Canyon Lake", "zip": "78133", "url": "http://www.clmarina.biz/", "photo": "http://www.clmarina.biz/images/map_canyonlake_sm.gif", "zipcode": 78133.0, "longitude": -98.23340764, "phone": "(830) 935-4333", "state": "TX", "street": "280 Marina Drive", "latitude": 29.90030748, "image_tag": "<img src=\"http://www.clmarina.biz/images/map_canyonlake_sm.gif\" height=\"160\" width=\"250\" />"}},{"geometry": {"type": "Point", "coordinates": [-96.54725366100001, 32.855295779000016]}, "type": "Feature", "id": 11, "properties": {"": "M", "city": "Garland", "name": "Captain's Cove Marina \u2013 Lake Ray Hubbard", "zip": "75043", "url": "http://suntexmarinas.com/suntexportfolio/captainscove/", "photo": "http://suntexmarinas.com/wp-content/uploads/2012/05/Captains-cove-Logo-small-2.png", "zipcode": 75043.0, "longitude": -96.54725366, "phone": "(972) 226-7100", "state": "TX", "street": "5965 Marina Drive", "latitude": 32.85529578, "image_tag": "<img src=\"http://suntexmarinas.com/wp-content/uploads/2012/05/Captains-cove-Logo-small-2.png\" height=\"160\" width=\"250\" />"}},{"geometry": {"type": "Point", "coordinates": [-96.48011847999999, 32.87620071800001]}, "type": "Feature", "id": 12, "properties": {"": "M", "city": "Rockwall", "name": "Chandler's Landing Marina \u2013 Lake Ray Hubbard", "zip": "75032", "url": "http://suntexmarinas.com/suntexportfolio/chandlerslanding/", "photo": "http://suntexmarinas.com/wp-content/uploads/2012/05/Chandlers-landing-Logo-small-2.png", "zipcode": 75032.0, "longitude": -96.48011848, "phone": "(972) 771-8865", "state": "TX", "street": "1 Harborview Drive", "latitude": 32.87620072, "image_tag": "<img src=\"http://suntexmarinas.com/wp-content/uploads/2012/05/Chandlers-landing-Logo-small-2.png\" height=\"160\" width=\"250\" />"}},{"geometry": {"type": "Point", "coordinates": [-98.43965264000002, 32.84789553799999]}, "type": "Feature", "id": 13, "properties": {"": "M", "city": "Graford", "name": "Cliffs Resort Marina - Possum Kingdom Lake", "zip": "76449", "url": "http://www.thecliffsresort.com/Leisure/Marina.aspx", "photo": "http://www.thecliffsresort.com/getfile/4321f0c0-2375-4728-9b67-37364d5ee1ec/splash_marina.aspx?width=722&height=220", "zipcode": 76449.0, "longitude": -98.43965264, "phone": "(888) 335-8882", "state": "TX", "street": "160 Cliffs Drive", "latitude": 32.84789554, "image_tag": "<img src=\"http://www.thecliffsresort.com/getfile/4321f0c0-2375-4728-9b67-37364d5ee1ec/splash_marina.aspx?width=722&height=220\" height=\"160\" width=\"250\" />"}},{"geometry": {"type": "Point", "coordinates": [-96.53416554699999, 33.049578999999994]}, "type": "Feature", "id": 14, "properties": {"": "M", "city": "Wylie", "name": "Collin Park Marina \u2013 Lake Lavon", "zip": "75098", "url": "http://www.collinpark.com/", "photo": "http://www.collinpark.com/images/template%20images/header.jpg?nxg_versionuid=published", "zipcode": 75098.0, "longitude": -96.53416555, "phone": "(972) 442-3567", "state": "TX", "street": "2200 Saint Paul Rd", "latitude": 33.049579, "image_tag": "<img src=\"http://www.collinpark.com/images/template%20images/header.jpg?nxg_versionuid=published\" height=\"160\" width=\"250\" />"}},{"geometry": {"type": "Point", "coordinates": [-95.07170370199998, 29.53643940699999]}, "type": "Feature", "id": 15, "properties": {"": "M", "city": "League City", "name": "Constellation Pointe Marina - Clear Lake", "zip": "77573", "zipcode": 77573.0, "longitude": -95.0717037, "phone": "(281) 334-2527", "state": "TX", "street": "451 Constellation", "latitude": 29.53643941}},{"geometry": {"type": "Point", "coordinates": [-97.38902729099999, 27.793228112999998]}, "type": "Feature", "id": 16, "properties": {"": "M", "city": "Corpus Christi", "name": "Corpus Christi Municipal Marina \u2013 Corpus Christi Bay (Charter Member)", "zip": "78401", "url": "http://www.corpuschristimarina.com/Marina/index.cfm", "photo": "http://www.corpuschristimarina.com/marina/images/marina950_2.jpg", "zipcode": 78401.0, "longitude": -97.38902729, "phone": "(361) 826-3980", "state": "TX", "street": "400A North Shoreline Boulevard", "latitude": 27.79322811, "image_tag": "<img src=\"http://www.corpuschristimarina.com/marina/images/marina950_2.jpg\" height=\"160\" width=\"250\" />"}},{"geometry": {"type": "Point", "coordinates": [-96.94319353700001, 33.14269484900001]}, "type": "Feature", "id": 17, "properties": {"": "M", "city": "Little Elm", "name": "Cottonwood Creek Marina - Lake Lewisville", "zip": "75068", "url": "http://www.cottonwoodcreekmarina.com/website/index.htm", "photo": "http://www.cottonwoodcreekmarina.com/website/images/home/L4.jpg", "zipcode": 75068.0, "longitude": -96.94319354, "phone": "(972) 292-1100", "state": "TX", "street": "900 Lobo Lane", "latitude": 33.14269485, "image_tag": "<img src=\"http://www.cottonwoodcreekmarina.com/website/images/home/L4.jpg\" height=\"160\" width=\"250\" />"}},{"geometry": {"type": "Point", "coordinates": [-97.07732945800001, 27.99242549600001]}, "type": "Feature", "id": 18, "properties": {"": "M", "city": "Rockport", "name": "Cove Harbor Marina - GIWW (Rockport)", "zip": "78382", "url": "http://www.coveharbormarina.com/", "photo": "http://www.coveharbormarina.com/images/Aerial_09_01_pg.jpg", "zipcode": 78382.0, "longitude": -97.07732946, "phone": "(361) 790-5438", "state": "TX", "street": "121 North Cove Harbor", "latitude": 27.9924255, "image_tag": "<img src=\"http://www.coveharbormarina.com/images/Aerial_09_01_pg.jpg\" height=\"160\" width=\"250\" />"}},{"geometry": {"type": "Point", "coordinates": [-98.29746533899998, 29.878304721000006]}, "type": "Feature", "id": 19, "properties": {"": "M", "city": "Canyon Lake", "name": "Cranes Mill Marina - Canyon Lake", "zip": "78133", "url": "http://www.clmarina.biz/", "photo": "http://www.clmarina.biz/images/map_canyonlake_sm.gif", "zipcode": 78133.0, "longitude": -98.29746534, "phone": "(830) 899-7718", "state": "TX", "street": "16440 Cranes Mill Rd Ste 1", "latitude": 29.87830472, "image_tag": "<img src=\"http://www.clmarina.biz/images/map_canyonlake_sm.gif\" height=\"160\" width=\"250\" />"}},{"geometry": {"type": "Point", "coordinates": [-97.69530868099997, 32.427752107]}, "type": "Feature", "id": 20, "properties": {"": "M", "city": "Granbury", "name": "De Cordova Bend (HOA) Marina - Lake Granbury", "zip": "76049", "zipcode": 76049.0, "longitude": -97.69530868, "phone": "(817) 326-2175", "state": "TX", "street": "4320 DCBE Marina Court", "latitude": 32.42775211}},{"geometry": {"type": "Point", "coordinates": [-97.504673911, 32.865932139999984]}, "type": "Feature", "id": 21, "properties": {"": "M", "city": "Ft. Worth", "name": "Eagle Mountain Marina/Marine Quest - Eagle Mountain Lake", "zip": "76135", "url": "http://www.marinequest.net/eaglemountain/", "photo": "http://www.marinequest.net/images/eagle_mountain_marina/EMM-arial.jpg", "zipcode": 76135.0, "longitude": -97.50467391, "phone": "(817) 237-5588", "state": "TX", "street": "6500 Wells Burnett Rd.", "latitude": 32.86593214, "image_tag": "<img src=\"http://www.marinequest.net/images/eagle_mountain_marina/EMM-arial.jpg\" height=\"160\" width=\"250\" />"}},{"geometry": {"type": "Point", "coordinates": [-97.02080497700001, 33.08250122200002]}, "type": "Feature", "id": 22, "properties": {"": "M", "city": "Lewisville", "name": "Eagle Point Marina - Lake Lewisville", "zip": "75077", "url": "http://www.eaglepointmarina.com/", "photo": "http://www.eaglepointmarina.com/home09-2005.jpg", "zipcode": 75077.0, "longitude": -97.02080498, "phone": "(972) 436-6561", "state": "TX", "street": "1 Eagle Point Rd", "latitude": 33.08250122, "image_tag": "<img src=\"http://www.eaglepointmarina.com/home09-2005.jpg\" height=\"160\" width=\"250\" />"}},{"geometry": {"type": "Point", "coordinates": [-97.94144963100001, 30.431708866000008]}, "type": "Feature", "id": 23, "properties": {"": "M", "city": "Austin", "name": "Emerald Point Marina - Lake Travis", "zip": "78734", "url": "http://www.emeraldpointmarina.com/index.html", "photo": "http://www.emeraldpointmarina.com/img/banner/image1.jpg", "zipcode": 78734.0, "longitude": -97.94144963, "phone": "(512) 266-1535", "state": "TX", "street": "5973 Hiline Rd.", "latitude": 30.43170887, "image_tag": "<img src=\"http://www.emeraldpointmarina.com/img/banner/image1.jpg\" height=\"160\" width=\"250\" />"}},{"geometry": {"type": "Point", "coordinates": [-95.04070135299997, 29.56077766599998]}, "type": "Feature", "id": 24, "properties": {"": "M", "city": "Seabrook", "name": "Endeavour Marina - Clear Lake", "zip": "77586", "url": "http://www.endeavourmarina.com/endeavour2012/index.html", "photo": "http://www.endeavourmarina.com/endeavour2012/images/ss1.jpg", "zipcode": 77586.0, "longitude": -95.04070135, "phone": "(832) 864-4000", "state": "TX", "street": "3101 NASA Road", "latitude": 29.56077767, "image_tag": "<img src=\"http://www.endeavourmarina.com/endeavour2012/images/ss1.jpg\" height=\"160\" width=\"250\" />"}},{"geometry": {"type": "Point", "coordinates": [-95.344190884, 28.949957208]}, "type": "Feature", "id": 25, "properties": {"": "M", "city": "Freeport", "name": "Freeport Municipal Marina - Old Brazos River", "zip": "77541", "url": "http://www.myfreeportmarina.com/", "photo": "http://www.myfreeportmarina.com/media/rokgallery/0/0992c6d7-b67a-4ed9-fa12-877aad36afe7/44909f71-d5d2-4677-aafb-7b258e0bfffb.jpg", "zipcode": 77541.0, "longitude": -95.34419088, "phone": "(979) 373-0900", "state": "TX", "street": "202 East 2nd Street", "latitude": 28.94995721, "image_tag": "<img src=\"http://www.myfreeportmarina.com/media/rokgallery/0/0992c6d7-b67a-4ed9-fa12-877aad36afe7/44909f71-d5d2-4677-aafb-7b258e0bfffb.jpg\" height=\"160\" width=\"250\" />"}},{"geometry": {"type": "Point", "coordinates": [-95.30821075799997, 28.93240879199999]}, "type": "Feature", "id": 26, "properties": {"": "M", "city": "Surfside Beach", "name": "Freeport Surfside Marina - GIWW/Freeport", "zip": "77541", "url": "http://www.surfside-marina.com/", "photo": "http://www.surfside-marina.com/images/about-surfside.jpg", "zipcode": 77541.0, "longitude": -95.30821076, "phone": "(979) 230-9400", "state": "TX", "street": "827 Gulf Road", "latitude": 28.93240879, "image_tag": "<img src=\"http://www.surfside-marina.com/images/about-surfside.jpg\" height=\"160\" width=\"250\" />"}},{"geometry": {"type": "Point", "coordinates": [-96.64112232100001, 33.851072482000006]}, "type": "Feature", "id": 27, "properties": {"": "M", "city": "Denison", "name": "Grandpappy Point Marina \u2013 Lake Texoma", "zip": "75020", "url": "http://www.grandpappy.com/", "photo": "https://sphotos-a.xx.fbcdn.net/hphotos-prn1/537604_434234439934127_1639736888_n.jpg", "zipcode": 75020.0, "longitude": -96.64112232, "phone": "(888) 855-1972", "state": "TX", "street": "132 Grandpappy Dr.", "latitude": 33.85107248, "image_tag": "<img src=\"https://sphotos-a.xx.fbcdn.net/hphotos-prn1/537604_434234439934127_1639736888_n.jpg\" height=\"160\" width=\"250\" />"}},{"geometry": {"type": "Point", "coordinates": [-94.96955945299999, 29.29633558500001]}, "type": "Feature", "id": 28, "properties": {"": "M", "city": "West Galveston Bay", "name": "Harborwalk Marina - West Galveston Bay/GIWW", "zip": "77563", "url": "http://www.harborwalk.com/index.php", "photo": "http://www.harborwalk.com/images/mainimages/about.jpg", "zipcode": 77563.0, "longitude": -94.96955945, "phone": "(866) 435-8777", "state": "TX", "street": "1445 Harborwalk Boulevard", "latitude": 29.29633558, "image_tag": "<img src=\"http://www.harborwalk.com/images/mainimages/about.jpg\" height=\"160\" width=\"250\" />"}},{"geometry": {"type": "Point", "coordinates": [-96.70638393000002, 33.827988344999994]}, "type": "Feature", "id": 29, "properties": {"": "M", "city": "Pottsboro", "name": "Highport Resort and Marina - Lake Texoma", "zip": "75076", "url": "http://www.highport.com/", "photo": "http://www.highport.com/Header%20logo%20for%20website.jpg", "zipcode": 75076.0, "longitude": -96.70638393, "phone": "(903) 786-7000", "state": "TX", "street": "120 Texoma Harbor Drive", "latitude": 33.82798834, "image_tag": "<img src=\"http://www.highport.com/Header%20logo%20for%20website.jpg\" height=\"160\" width=\"250\" />"}},{"geometry": {"type": "Point", "coordinates": [-98.44928410300002, 32.889773864000006]}, "type": "Feature", "id": 30, "properties": {"": "M", "city": "Graford", "name": "Hill Country Harbor Marina - Possum Kingdom Lake", "zip": "76449", "url": "http://harborliving.com/amenities/the-marina", "photo": "http://harborliving.com/images/sized/uploads/images/Marina2-960x230.jpg", "zipcode": 76449.0, "longitude": -98.4492841, "phone": "(940) 779-3600", "state": "TX", "street": "1693 Park Road 36", "latitude": 32.88977386, "image_tag": "<img src=\"http://harborliving.com/images/sized/uploads/images/Marina2-960x230.jpg\" height=\"160\" width=\"250\" />"}},{"geometry": {"type": "Point", "coordinates": [-97.084114774, 27.807150236999973]}, "type": "Feature", "id": 31, "properties": {"": "M", "city": "Port Aransas", "name": "Island Moorings Marina, A Bluewater Company - Corpus Christi Channel", "zip": "78373", "url": "http://www.islandmoorings.com/", "zipcode": 78373.0, "longitude": -97.08411477, "phone": "(361) 749-4100", "state": "TX", "street": "3500 Island Moorings Parkway", "latitude": 27.80715024}},{"geometry": {"type": "Point", "coordinates": [-96.97617915799998, 32.621262511]}, "type": "Feature", "id": 32, "properties": {"": "M", "city": "Cedar Hill", "name": "Joe Pool Marina/Marine Quest \u2013 Lake Joe Pool", "zip": "75104", "url": "http://www.marinequest.net/joepool/", "photo": "http://www.marinequest.net/joepool/JPM_arial.jpg", "zipcode": 75104.0, "longitude": -96.97617916, "phone": "(972) 299-9010", "state": "TX", "street": "1570 W. FM 1382", "latitude": 32.62126251, "image_tag": "<img src=\"http://www.marinequest.net/joepool/JPM_arial.jpg\" height=\"160\" width=\"250\" />"}},{"geometry": {"type": "Point", "coordinates": [-95.018433297, 29.544079581000005]}, "type": "Feature", "id": 33, "properties": {"": "M", "city": "Kemah", "name": "Kemah Boardwalk Marina \u2013 Clear Lake (Charter Member)", "zip": "77565", "url": "http://www.kemahboardwalk.com/kemah-marina.asp", "photo": "http://www.kemahboardwalk.com/images/content/kemah-marina/photo-of-kemah-marina.png", "zipcode": 77565.0, "longitude": -95.0184333, "phone": "(281) 334-2284", "state": "TX", "street": "555 Bradford Street", "latitude": 29.54407958, "image_tag": "<img src=\"http://www.kemahboardwalk.com/images/content/kemah-marina/photo-of-kemah-marina.png\" height=\"160\" width=\"250\" />"}},{"geometry": {"type": "Point", "coordinates": [-97.029549841, 28.041883267000003]}, "type": "Feature", "id": 34, "properties": {"": "M", "city": "Rockport", "name": "Key Allegro Isle Marina - Aransas Bay", "zip": "78382", "url": "http://keyallegromarina.com/", "photo": "http://keyallegromarina.com/wp-content/uploads/2011/10/914x374-slide1.jpg", "zipcode": 78382.0, "longitude": -97.02954984, "phone": "(361) 729-8264", "state": "TX", "street": "37 Mazatlan", "latitude": 28.04188327, "image_tag": "<img src=\"http://keyallegromarina.com/wp-content/uploads/2011/10/914x374-slide1.jpg\" height=\"160\" width=\"250\" />"}},{"geometry": {"type": "Point", "coordinates": [-100.73022488999999, 29.391882939000027]}, "type": "Feature", "id": 35, "properties": {"": "M", "city": "Del Rio", "name": "Lake Amistad Resort & Marina - Lake Amistad", "zip": "78840", "url": "http://www.amistadlakeresort.com/", "photo": "http://www.amistadlakeresort.com/images/header-availability_04.jpg", "zipcode": 78840.0, "longitude": -100.73022489, "phone": "(830) 775-8591", "state": "TX", "street": "11207 US 90", "latitude": 29.39188294, "image_tag": "<img src=\"http://www.amistadlakeresort.com/images/header-availability_04.jpg\" height=\"160\" width=\"250\" />"}},{"geometry": {"type": "Point", "coordinates": [-97.78494998100001, 30.302765473000022]}, "type": "Feature", "id": 36, "properties": {"": "M", "city": "Austin", "name": "Lake Austin Marina - Lake Austin", "zip": "78746", "url": "http://www.lakeaustinmarina.com/", "photo": "http://www.lakeaustinmarina.com/images/lake-austin-marina.jpg", "zipcode": 78746.0, "longitude": -97.78494998, "phone": "(512) 329-6640", "state": "TX", "street": "2215 Westlake Drive", "latitude": 30.30276547, "image_tag": "<img src=\"http://www.lakeaustinmarina.com/images/lake-austin-marina.jpg\" height=\"160\" width=\"250\" />"}},{"geometry": {"type": "Point", "coordinates": [-98.42240842400003, 30.568199901000014]}, "type": "Feature", "id": 37, "properties": {"": "M", "city": "Sunrise Beach", "name": "Lake LBJ Resort Marina & Country Club - Lake LBJ", "zip": "78643", "url": "http://www.lakelbjfun.com/", "photo": "http://www.lakelbjfun.com/images/logo_sunrisebeach.gif", "zipcode": 78643.0, "longitude": -98.42240842, "phone": "(325) 288-9393", "state": "TX", "street": "667 Sandy Mountain Drive", "latitude": 30.5681999, "image_tag": "<img src=\"http://www.lakelbjfun.com/images/logo_sunrisebeach.gif\" height=\"160\" width=\"250\" />"}},{"geometry": {"type": "Point", "coordinates": [-97.368806425, 31.985835612000017]}, "type": "Feature", "id": 38, "properties": {"": "M", "city": "Whitney", "name": "Lake Whitney Marina at Juniper Cove \u2013 Lake Whitney", "zip": "76692", "url": "http://lakewhitneymarina.com/", "photo": "http://lakewhitneymarina.com/images/main/logo-lwm.jpg", "zipcode": 76692.0, "longitude": -97.36880643, "phone": "(254) 694-3129", "state": "TX", "street": "420 Juniper Cove Road", "latitude": 31.98583561, "image_tag": "<img src=\"http://lakewhitneymarina.com/images/main/logo-lwm.jpg\" height=\"160\" width=\"250\" />"}},{"geometry": {"type": "Point", "coordinates": [-98.49178333399999, 32.908682691000024]}, "type": "Feature", "id": 39, "properties": {"": "M", "city": "Graham", "name": "Lakeshore Marina and RV Park - Possum Kingdom Lake", "zip": "76450", "url": "http://www.lakeshoreonpk.com/", "photo": "http://www.lakeshoreonpk.com/lakeshorelogo.jpg", "zipcode": 76450.0, "longitude": -98.49178333, "phone": "(940) 549-2518", "state": "TX", "street": "5501 Lake Shore Drive", "latitude": 32.90868269, "image_tag": "<img src=\"http://www.lakeshoreonpk.com/lakeshorelogo.jpg\" height=\"160\" width=\"250\" />"}},{"geometry": {"type": "Point", "coordinates": [-97.01829583199998, 33.12620386399999]}, "type": "Feature", "id": 40, "properties": {"": "M", "city": "Lake Dallas", "name": "Lakeview Marina - Lake Lewisville", "zip": "75065", "url": "http://www.ldbc-lakeview.com/", "photo": "http://cdn-5.psndealer.com/e2/dealersite/images/ldbc-lakeview/header3.jpg", "zipcode": 75065.0, "longitude": -97.01829583, "phone": "(940) 321-2675", "state": "TX", "street": "300 Marina Drive", "latitude": 33.12620386, "image_tag": "<img src=\"http://cdn-5.psndealer.com/e2/dealersite/images/ldbc-lakeview/header3.jpg\" height=\"160\" width=\"250\" />"}},{"geometry": {"type": "Point", "coordinates": [-97.98705882000002, 30.373920847000022]}, "type": "Feature", "id": 41, "properties": {"": "M", "city": "Lakeway", "name": "Lakeway Marina - Lake Travis", "zip": "78734", "url": "http://www.lakewaymarina.com/", "photo": "https://encrypted-tbn3.google.com/images?q=tbn:ANd9GcSqhX9-EMKFE0lae_SVWEJmeTHkeYiZ1KkAGcwtUCZmf6ZlVZvpzw", "zipcode": 78734.0, "longitude": -97.98705882, "phone": "(512) 261-7511", "state": "TX", "street": "103 Lakeway Drive", "latitude": 30.37392085, "image_tag": "<img src=\"https://encrypted-tbn3.google.com/images?q=tbn:ANd9GcSqhX9-EMKFE0lae_SVWEJmeTHkeYiZ1KkAGcwtUCZmf6ZlVZvpzw\" height=\"160\" width=\"250\" />"}},{"geometry": {"type": "Point", "coordinates": [-95.03203655800002, 29.56068469600001]}, "type": "Feature", "id": 42, "properties": {"": "M", "city": "Seabrook", "name": "Lakewood Yacht Club \u2013 Clear Lake", "zip": "77586", "url": "http://www.lakewoodyachtclub.com/", "photo": "http://www.lakewoodyachtclub.com/images/home_image.jpg", "zipcode": 77586.0, "longitude": -95.03203656, "phone": "(281) 474-2511", "state": "TX", "street": "2425 Nasa Parkway", "latitude": 29.5606847, "image_tag": "<img src=\"http://www.lakewoodyachtclub.com/images/home_image.jpg\" height=\"160\" width=\"250\" />"}},{"geometry": {"type": "Point", "coordinates": [-97.44882173500002, 32.89450462399998]}, "type": "Feature", "id": 43, "properties": {"": "M", "city": "Fort Worth", "name": "Landing Homeowners Association Marina - Eagle Mountain Lake", "zip": "76179", "zipcode": 76179.0, "longitude": -97.44882174, "phone": "(817) 236-8383", "state": "TX", "street": "9400 Mountain Lake", "latitude": 32.89450462}},{"geometry": {"type": "Point", "coordinates": [-98.33448705799998, 30.551149678]}, "type": "Feature", "id": 44, "properties": {"": "M", "city": "Cottonwood Shrs", "name": "LBJ Yacht Club & Marina Ltd. - Lake LBJ", "zip": "78657", "url": "http://www.lakelbjmarina.com/", "photo": "http://www.lakelbjmarina.com/logonewc.gif", "zipcode": 78657.0, "longitude": -98.33448706, "phone": "(830) 693-9172", "state": "TX", "street": "200 South Wirtz Dam Road", "latitude": 30.55114968, "image_tag": "<img src=\"http://www.lakelbjmarina.com/logonewc.gif\" height=\"160\" width=\"250\" />"}},{"geometry": {"type": "Point", "coordinates": [-95.03693586100002, 29.541038703000027]}, "type": "Feature", "id": 45, "properties": {"": "M", "city": "Kemah", "name": "Legend Point Marina - Clear Lake", "zip": "77565", "url": "http://westplaza.com/legend_point_marina/index.html", "photo": "http://westplaza.com/legend_point_marina/images/topper.jpg", "zipcode": 77565.0, "longitude": -95.03693586, "phone": "(281) 334-3811", "state": "TX", "street": "1300 Marina Bay Drive", "latitude": 29.5410387, "image_tag": "<img src=\"http://westplaza.com/legend_point_marina/images/topper.jpg\" height=\"160\" width=\"250\" />"}},{"geometry": {"type": "Point", "coordinates": [-96.64836885800003, 33.873219081]}, "type": "Feature", "id": 46, "properties": {"": "M", "city": "Pottsboro", "name": "Little Mineral Marina - Lake Texoma", "zip": "75076", "url": "http://www.littlemineral.com/", "photo": "http://s3.amazonaws.com/lh_lake_businesses/128/127/det_1_lake_texoma_marinas.jpg", "zipcode": 75076.0, "longitude": -96.64836886, "phone": "(903) 786-2332", "state": "TX", "street": "300 Little Mineral Blvd", "latitude": 33.87321908, "image_tag": "<img src=\"http://s3.amazonaws.com/lh_lake_businesses/128/127/det_1_lake_texoma_marinas.jpg\" height=\"160\" width=\"250\" />"}},{"geometry": {"type": "Point", "coordinates": [-98.44600124700003, 30.647419131999982]}, "type": "Feature", "id": 47, "properties": {"": "M", "city": "Kingsland", "name": "Longhorn Resort - Lake LBJ", "zip": "78639", "url": "http://www.longhornresort.com/", "photo": "http://www.longhornresort.com/logo3.gif", "zipcode": 78639.0, "longitude": -98.44600125, "phone": "(325) 388-4343", "state": "TX", "street": "151 Melodie Ln", "latitude": 30.64741913, "image_tag": "<img src=\"http://www.longhornresort.com/logo3.gif\" height=\"160\" width=\"250\" />"}},{"geometry": {"type": "Point", "coordinates": [-97.04447212899998, 32.63487738399999]}, "type": "Feature", "id": 48, "properties": {"": "M", "city": "Grand Prairie", "name": "Lynn Creek Marina -Joe Pool Lake", "zip": "75052", "url": "http://www.lynncreekmarina.com/", "photo": "http://216.87.190.31/gestion/database/marinas/photos/2006/5/tx75052.3871.9573.1a.450.jpg", "zipcode": 75052.0, "longitude": -97.04447213, "phone": "(817) 640-4200", "state": "TX", "street": "5700 Lake Ridge Parkway", "latitude": 32.63487738, "image_tag": "<img src=\"http://216.87.190.31/gestion/database/marinas/photos/2006/5/tx75052.3871.9573.1a.450.jpg\" height=\"160\" width=\"250\" />"}},{"geometry": {"type": "Point", "coordinates": [-95.026497533, 29.543047978999994]}, "type": "Feature", "id": 49, "properties": {"": "M", "city": "Clear Lake Shores", "name": "Marina Bay Harbor Yacht Club - Clear Lake", "zip": "77565", "url": "http://www.marinabayharbor.com/", "photo": "http://www.marinabayharbor.com/images/logo.gif", "zipcode": 77565.0, "longitude": -95.02649753, "phone": "(281) 536-2222", "state": "TX", "street": "323 West 6th Street", "latitude": 29.54304798, "image_tag": "<img src=\"http://www.marinabayharbor.com/images/logo.gif\" height=\"160\" width=\"250\" />"}},{"geometry": {"type": "Point", "coordinates": [-95.05661670400002, 29.547660044999986]}, "type": "Feature", "id": 50, "properties": {"": "M", "city": "Kemah", "name": "Marina del Sol \u2013 Clear Lake (Charter Member)", "zip": "77565", "url": "http://www.marinadelsoltx.com/", "photo": "http://www.marinadelsoltx.com/images/marina_del_sol_welcome.jpg", "zipcode": 77565.0, "longitude": -95.0566167, "phone": "(281) 334-3909", "state": "TX", "street": "1203 Twin Oaks Boulevard", "latitude": 29.54766005, "image_tag": "<img src=\"http://www.marinadelsoltx.com/images/marina_del_sol_welcome.jpg\" height=\"160\" width=\"250\" />"}},{"geometry": {"type": "Point", "coordinates": [-97.878362073, 30.394568424]}, "type": "Feature", "id": 51, "properties": {"": "M", "city": "Austin", "name": "Marshall Ford Marina/Marine Quest - Lake Travis", "zip": "78732", "url": "http://www.marinequest.net/marshallford/", "photo": "http://www.marinequest.net/images/marshall_ford_marina/mfm_dock_web1.jpg", "zipcode": 78732.0, "longitude": -97.87836207, "phone": "(512) 266-1559", "state": "TX", "street": "12816 Park Dr.", "latitude": 30.39456842, "image_tag": "<img src=\"http://www.marinequest.net/images/marshall_ford_marina/mfm_dock_web1.jpg\" height=\"160\" width=\"250\" />"}},{"geometry": {"type": "Point", "coordinates": [-96.77360535399998, 33.81911631999998]}, "type": "Feature", "id": 52, "properties": {"": "M", "city": "Pottsboro", "name": "Mill Creek Marina - Lake Texoma", "zip": "75076", "url": "http://millcreekresortandmarina.com/index.asp", "photo": "http://millcreekresortandmarina.com/images/userfiles/Image/20090611175931_6_100_0438.JPG", "zipcode": 75076.0, "longitude": -96.77360535, "phone": "(903) 786-2227", "state": "TX", "street": "512 Mill Creek Resort Rd", "latitude": 33.81911632, "image_tag": "<img src=\"http://millcreekresortandmarina.com/images/userfiles/Image/20090611175931_6_100_0438.JPG\" height=\"160\" width=\"250\" />"}},{"geometry": {"type": "Point", "coordinates": [-97.93314923100002, 30.443328297999983]}, "type": "Feature", "id": 53, "properties": {"": "M", "city": "Jonestown", "name": "Northshore Marina at the Hollows - Lake Travis", "zip": "78645", "url": "http://www.jff.net/north_shore.htm", "photo": "http://imagesth.homeaway.com/Images/AHAX/7147271/15_400x300.jpg", "zipcode": 78645.0, "longitude": -97.93314923, "phone": "(512) 266-9710", "state": "TX", "street": "6612 Lantern View Ln.", "latitude": 30.4433283, "image_tag": "<img src=\"http://imagesth.homeaway.com/Images/AHAX/7147271/15_400x300.jpg\" height=\"160\" width=\"250\" />"}},{"geometry": {"type": "Point", "coordinates": [-97.259338114, 27.69166385699998]}, "type": "Feature", "id": 54, "properties": {"": "M", "city": "Corpus Christi", "name": "Paradise Cove Marina (NAS) - Corpus Christi Bay", "zip": "78419", "zipcode": 78419.0, "longitude": -97.25933811, "phone": "(361) 961-1293", "state": "TX", "street": "11001 D St.", "latitude": 27.69166386}},{"geometry": {"type": "Point", "coordinates": [-97.94319607, 30.421924279999985]}, "type": "Feature", "id": 55, "properties": {"": "M", "city": "Austin", "name": "Paradise Cove Marina & Yacht Club - Lake Travis", "zip": "78734", "url": "http://www.paradisecovemarina.net/", "photo": "http://www.paradisecovemarina.net/images/header/pc_logo.png", "zipcode": 78734.0, "longitude": -97.94319607, "phone": "(512) 266-8006", "state": "TX", "street": "17141 Rocky Ridge Road", "latitude": 30.42192428, "image_tag": "<img src=\"http://www.paradisecovemarina.net/images/header/pc_logo.png\" height=\"160\" width=\"250\" />"}},{"geometry": {"type": "Point", "coordinates": [-97.68667149700002, 32.36286028000001]}, "type": "Feature", "id": 56, "properties": {"": "M", "city": "Granbury", "name": "Pecan Plantation Marina - Lake Granbury", "zip": "76049", "url": "http://www.ppoaweb.com/", "zipcode": 76049.0, "longitude": -97.6866715, "phone": "(817) 573-3201", "state": "TX", "street": "8650 Westiver Court", "latitude": 32.36286028}},{"geometry": {"type": "Point", "coordinates": [-96.921712582, 33.075420167000004]}, "type": "Feature", "id": 57, "properties": {"": "M", "city": "Lewisville", "name": "Pier 121 Marina \u2013 Lake Lewisville (Charter Member)", "zip": "75056", "url": "http://pier121marina.com", "photo": "http://www.pier121marina.com/banner_images/1_home_banner.jpg", "zipcode": 75056.0, "longitude": -96.92171258, "phone": "(972) 625-2233", "state": "TX", "street": "1481 East Hill Park Road", "latitude": 33.07542017, "image_tag": "<img src=\"http://www.pier121marina.com/banner_images/1_home_banner.jpg\" height=\"160\" width=\"250\" />"}},{"geometry": {"type": "Point", "coordinates": [-97.99504760299999, 30.380349242000023]}, "type": "Feature", "id": 58, "properties": {"": "M", "city": "Point Venture", "name": "Point Venture Marina - Lake Travis", "zip": "78645", "url": "http://www.pointventure.com/", "zipcode": 78645.0, "longitude": -97.9950476, "phone": "(512) 267-1128", "state": "TX", "street": "555 Venture Boulevard South", "latitude": 30.38034924}},{"geometry": {"type": "Point", "coordinates": [-97.06827472100002, 27.83609445000002]}, "type": "Feature", "id": 59, "properties": {"": "M", "city": "Port Aransas", "name": "Port Aransas City Marina - Port Arnasas Harbor", "zip": "78373", "url": "http://www.cityofportaransas.org/harbor_marina.cfm", "photo": "http://www.cityofportaransas.org/images/marina31.jpg", "zipcode": 78373.0, "longitude": -97.06827472, "phone": "(361) 749-5429", "state": "TX", "street": "710 Ave. A", "latitude": 27.83609445, "image_tag": "<img src=\"http://www.cityofportaransas.org/images/marina31.jpg\" height=\"160\" width=\"250\" />"}},{"geometry": {"type": "Point", "coordinates": [-95.02475482300002, 29.546683469000016]}, "type": "Feature", "id": 60, "properties": {"": "M", "city": "Clear Lake Shores", "name": "Portofino Harbour Marina & Yacht Club- Clear Lake", "zip": "77565", "url": "http://www.portofinoharbour.com/", "photo": "http://www.portofinoharbour.com/PHYC.jpg", "zipcode": 77565.0, "longitude": -95.02475482, "phone": "(281) 334-6007", "state": "TX", "street": "1 Portofino Plaza", "latitude": 29.54668347, "image_tag": "<img src=\"http://www.portofinoharbour.com/PHYC.jpg\" height=\"160\" width=\"250\" />"}},{"geometry": {"type": "Point", "coordinates": [-98.560988603, 32.88187910099998]}, "type": "Feature", "id": 61, "properties": {"": "M", "city": "Caddo", "name": "Possum Kingdom State Park Store and Marina - Possum Kingdom Lake", "zip": "76429", "url": "http://www.pkspstoreandmarina.com/", "photo": "http://www.pkspstoreandmarina.com/sitebuildercontent/sitebuilderpictures/webassets/logo.gif", "zipcode": 76429.0, "longitude": -98.5609886, "phone": "(940) 549-5612", "state": "TX", "street": "3911 Park Road 33", "latitude": 32.8818791, "image_tag": "<img src=\"http://www.pkspstoreandmarina.com/sitebuildercontent/sitebuilderpictures/webassets/logo.gif\" height=\"160\" width=\"250\" />"}},{"geometry": {"type": "Point", "coordinates": [-98.21991781600002, 29.88480149999998]}, "type": "Feature", "id": 62, "properties": {"": "M", "city": "Canyon Lake", "name": "Randolph AFB Marina - Canyon Lake", "zip": "78133", "zipcode": 78133.0, "longitude": -98.21991782, "phone": "(830) 226-5465", "state": "TX", "street": "781 Jacobs Creek Park Road", "latitude": 29.8848015}},{"geometry": {"type": "Point", "coordinates": [-97.885511629, 30.43227090800002]}, "type": "Feature", "id": 63, "properties": {"": "M", "city": "Leander", "name": "Riviera Marina - Lake Travis", "zip": "78641", "url": "http://www.rivieramarina.com/", "photo": "http://www.rivieramarina.com/images/310_BottomofTram2.jpg", "zipcode": 78641.0, "longitude": -97.88551163, "phone": "(512) 250-8321", "state": "TX", "street": "14297 FM 2769", "latitude": 30.43227091, "image_tag": "<img src=\"http://www.rivieramarina.com/images/310_BottomofTram2.jpg\" height=\"160\" width=\"250\" />"}},{"geometry": {"type": "Point", "coordinates": [-95.291322224, 28.95593726499999]}, "type": "Feature", "id": 64, "properties": {"": "M", "city": "Surfside Beach", "name": "Rochell's Gulf Coast Marina and Boat Storage - Surfside Beach/GIWW", "zip": "77541", "url": "http://www.gulfcoastmarina.com/index.php", "photo": "http://www.gulfcoastmarina.com/images/blank.gif", "zipcode": 77541.0, "longitude": -95.29132222, "phone": "(979) 239-1502", "state": "TX", "street": "135 Shark Lane", "latitude": 28.95593726, "image_tag": "<img src=\"http://www.gulfcoastmarina.com/images/blank.gif\" height=\"160\" width=\"250\" />"}},{"geometry": {"type": "Point", "coordinates": [-98.00944473300001, 30.365549726999973]}, "type": "Feature", "id": 65, "properties": {"": "M", "city": "Lakeway", "name": "Rough Hollow Yacht Club - Lake Travis", "zip": "78734", "url": "http://www.roughhollowyachtclubandmarina.com/Club/Scripts/Home/home.asp", "photo": "http://www.roughhollowyachtclubandmarina.com/custom/site/logo.jpg", "zipcode": 78734.0, "longitude": -98.00944473, "phone": "(512) 261-2288", "state": "TX", "street": "105 Yacht Club Cove", "latitude": 30.36554973, "image_tag": "<img src=\"http://www.roughhollowyachtclubandmarina.com/custom/site/logo.jpg\" height=\"160\" width=\"250\" />"}},{"geometry": {"type": "Point", "coordinates": [-93.882309034, 29.73558158999998]}, "type": "Feature", "id": 66, "properties": {"": "M", "city": "Sabine Pass", "name": "Sabine Pass Port Authority - Sabine Lake", "zip": "77655", "url": "http://www.sabinepassportauthority.com/", "zipcode": 77655.0, "longitude": -93.88230903, "phone": "(409) 971-2411", "state": "TX", "street": "5960 S 1st Ave", "latitude": 29.73558159}},{"geometry": {"type": "Point", "coordinates": [-97.958994126, 30.380295773]}, "type": "Feature", "id": 67, "properties": {"": "M", "city": "Lakeway", "name": "Sail & Ski Yacht Club - Lake Travis", "zip": "78734", "url": "http://www.sailandski.com/Page.aspx/pageId/63830/Sail--Ski-Yacht-Club--Marina.aspx", "photo": "http://www.sailandski.com/Page.aspx/pageId/63830/Sail--Ski-Yacht-Club--Marina.aspx", "zipcode": 78734.0, "longitude": -97.95899413, "phone": "(512) 266-2507", "state": "TX", "street": "16406 Stewart Road", "latitude": 30.38029577, "image_tag": "<img src=\"http://www.sailandski.com/Page.aspx/pageId/63830/Sail--Ski-Yacht-Club--Marina.aspx\" height=\"160\" width=\"250\" />"}},{"geometry": {"type": "Point", "coordinates": [-97.91271357199997, 30.46203033500001]}, "type": "Feature", "id": 68, "properties": {"": "M", "city": "Volente", "name": "Sandy Creek Yacht Club - Lake Travis", "zip": "78641", "url": "http://www.sandycreekyachtclub.com/", "photo": "http://www.sandycreekyachtclub.com/images/blank.jpg", "zipcode": 78641.0, "longitude": -97.91271357, "phone": "(512) 996-9707", "state": "TX", "street": "8714 Lime Creek Road", "latitude": 30.46203033, "image_tag": "<img src=\"http://www.sandycreekyachtclub.com/images/blank.jpg\" height=\"160\" width=\"250\" />"}},{"geometry": {"type": "Point", "coordinates": [-97.07895113000001, 32.962147604999984]}, "type": "Feature", "id": 69, "properties": {"": "M", "city": "Grapevine", "name": "Scott's Landing Marina \u2013 Lake Grapevine (Charter Member)", "zip": "76051", "url": "http://www.scottslandingmarina.com/", "photo": "http://www.scottslandingmarina.com/Portals/15/scottslanding-logo.gif", "zipcode": 76051.0, "longitude": -97.07895113, "phone": "(817) 481-4549", "state": "TX", "street": "2500 Oak Grove Loop South", "latitude": 32.96214761, "image_tag": "<img src=\"http://www.scottslandingmarina.com/Portals/15/scottslanding-logo.gif\" height=\"160\" width=\"250\" />"}},{"geometry": {"type": "Point", "coordinates": [-97.05504248900002, 32.955224758999975]}, "type": "Feature", "id": 70, "properties": {"": "M", "city": "Grapevine", "name": "Silver Lake Marina \u2013 Lake Grapevine (Charter Member)", "zip": "76051", "url": "http://www.silverlakemarina.com/", "photo": "http://www.silverlakemarina.com/images/silver-lake-marina-otl.png", "zipcode": 76051.0, "longitude": -97.05504249, "phone": "(817) 481-1918", "state": "TX", "street": "2500 Fairway Drive #1", "latitude": 32.95522476, "image_tag": "<img src=\"http://www.silverlakemarina.com/images/silver-lake-marina-otl.png\" height=\"160\" width=\"250\" />"}},{"geometry": {"type": "Point", "coordinates": [-96.23143805199999, 28.701486062000015]}, "type": "Feature", "id": 71, "properties": {"": "M", "city": "Palacios", "name": "South Bay Marina - Tres Palacios Bay", "zip": "77465", "zipcode": 77465.0, "longitude": -96.23143805, "phone": "(361) 972-5556", "state": "TX", "street": "1407 Main Street", "latitude": 28.70148606}},{"geometry": {"type": "Point", "coordinates": [-97.93957383899999, 30.430474543000003]}, "type": "Feature", "id": 72, "properties": {"": "M", "city": "Austin", "name": "Southshore Marina - Lake Travis", "zip": "78743", "zipcode": 78743.0, "longitude": -97.93957384, "phone": "(512) 637-3150", "state": "TX", "street": "5931 Hiline Road", "latitude": 30.43047454}},{"geometry": {"type": "Point", "coordinates": [-95.06574971499998, 29.543559961000028]}, "type": "Feature", "id": 73, "properties": {"": "M", "city": "League City", "name": "South Shore Harbour Marina \u2013 Clear Lake", "zip": "77573", "url": "http://www.southshoreharbourmarina.com/index.php", "photo": "http://www.wiredin.cc/services/SSH%20Marina/South-Shore-Harbour-Marina-.jpg", "zipcode": 77573.0, "longitude": -95.06574971, "phone": "(281) 334-0515", "state": "TX", "street": "2551 South Shore Boulevard Suite B", "latitude": 29.54355996, "image_tag": "<img src=\"http://www.wiredin.cc/services/SSH%20Marina/South-Shore-Harbour-Marina-.jpg\" height=\"160\" width=\"250\" />"}},{"geometry": {"type": "Point", "coordinates": [-95.56808228900002, 30.414906357000007]}, "type": "Feature", "id": 74, "properties": {"": "M", "city": "Willis", "name": "The Palms Marina - Lake Conroe", "zip": "77318", "url": "http://palmsmarina.com/", "photo": "http://palmsmarina.com/picts/aerial_website2.jpg", "zipcode": 77318.0, "longitude": -95.56808229, "phone": "(936) 856-6423", "state": "TX", "street": "11880 Anchorage Marina Road", "latitude": 30.41490636, "image_tag": "<img src=\"http://palmsmarina.com/picts/aerial_website2.jpg\" height=\"160\" width=\"250\" />"}},{"geometry": {"type": "Point", "coordinates": [-98.00743538199998, 30.406071570999984]}, "type": "Feature", "id": 75, "properties": {"": "M", "city": "Spicewood", "name": "The Reserve at Lake Travis - Lake Travis", "zip": "78669", "url": "http://www.reserveatlaketravis.com/", "photo": "http://www.reserveatlaketravis.com/images/spacer.gif", "zipcode": 78669.0, "longitude": -98.00743538, "phone": "(512) 264-2456", "state": "TX", "street": "19926 Thurman Bend Rd", "latitude": 30.40607157, "image_tag": "<img src=\"http://www.reserveatlaketravis.com/images/spacer.gif\" height=\"160\" width=\"250\" />"}},{"geometry": {"type": "Point", "coordinates": [-97.09738670600001, 33.00454482700002]}, "type": "Feature", "id": 76, "properties": {"": "M", "city": "Flower Mound", "name": "Twin Coves Marina \u2013 Lake Grapevine (Charter Member)", "zip": "75022", "url": "http://www.twincovesmarina.com/", "photo": "http://www.twincovesmarina.com/Portals/18/twincoves-logo.gif", "zipcode": 75022.0, "longitude": -97.09738671, "phone": "(972) 724-1804", "state": "TX", "street": "4500 Murrell Park Road", "latitude": 33.00454483, "image_tag": "<img src=\"http://www.twincovesmarina.com/Portals/18/twincoves-logo.gif\" height=\"160\" width=\"250\" />"}},{"geometry": {"type": "Point", "coordinates": [-97.05357107600003, 27.837226209999983]}, "type": "Feature", "id": 77, "properties": {"": "M", "city": "Port Aransas", "name": "University of Texas Marine Science Institute Marina (The) - Corpus Christi Channel", "zip": "78373", "zipcode": 78373.0, "longitude": -97.05357108, "phone": "(361) 749-6760", "state": "TX", "street": "750 Channelview Drive", "latitude": 27.83722621}},{"geometry": {"type": "Point", "coordinates": [-98.44013231000002, 30.651469281999994]}, "type": "Feature", "id": 78, "properties": {"": "M", "city": "Kingsland", "name": "Valentine Lakeside Resort - Lake LBJ", "zip": "78639", "url": "http://www.valentinelakeside.com/", "photo": "http://www.valentinelakeside.com/files/logo-new3.gif", "zipcode": 78639.0, "longitude": -98.44013231, "phone": "(325) 388-4418", "state": "TX", "street": "814 Euel Moore Drive", "latitude": 30.65146928, "image_tag": "<img src=\"http://www.valentinelakeside.com/files/logo-new3.gif\" height=\"160\" width=\"250\" />"}},{"geometry": {"type": "Point", "coordinates": [-98.451100607, 32.882244232000005]}, "type": "Feature", "id": 79, "properties": {"": "M", "city": "Graford", "name": "Villa Marina, Inc. - Possum Kingdom Lake", "zip": "76449", "zipcode": 76449.0, "longitude": -98.45110061, "phone": "(940) 779-2331", "state": "TX", "street": "3301 Lavilla Road", "latitude": 32.88224423}},{"geometry": {"type": "Point", "coordinates": [-97.91242016000001, 30.44169334700001]}, "type": "Feature", "id": 80, "properties": {"": "M", "city": "Leander", "name": "VIP Marina - Lake Travis", "zip": "78641", "url": "http://viplaketravis.com/", "photo": "http://viplaketravis.com/wp-content/uploads/2010/09/Marina-2.jpg", "zipcode": 78641.0, "longitude": -97.91242016, "phone": "(512) 331-5375", "state": "TX", "street": "16107-B FM 2769", "latitude": 30.44169335, "image_tag": "<img src=\"http://viplaketravis.com/wp-content/uploads/2010/09/Marina-2.jpg\" height=\"160\" width=\"250\" />"}},{"geometry": {"type": "Point", "coordinates": [-95.60641122700002, 30.40051512299999]}, "type": "Feature", "id": 81, "properties": {"": "M", "city": "Montgomery", "name": "Walden Marina \u2013 Lake Conroe (Charter Member)", "zip": "77356", "url": "http://www.waldenmarina.com/", "photo": "http://www.waldenmarina.com/img/clear.gif", "zipcode": 77356.0, "longitude": -95.60641123, "phone": "(936) 582-1060", "state": "TX", "street": "12050 Melville Drive", "latitude": 30.40051512, "image_tag": "<img src=\"http://www.waldenmarina.com/img/clear.gif\" height=\"160\" width=\"250\" />"}},{"geometry": {"type": "Point", "coordinates": [-95.04668160400001, 29.541817534000018]}, "type": "Feature", "id": 82, "properties": {"": "M", "city": "Kemah", "name": "Watergate Yachting Center \u2013 Clear Lake", "zip": "77565", "url": "http://www.watergatemarina.com/", "photo": "http://www.watergatemarina.com/g1data/s101watergate/pgs0/1/tpl7/img/TN/130513587155700001-TR-0450-0000.jpg", "zipcode": 77565.0, "longitude": -95.0466816, "phone": "(281) 334-1511", "state": "TX", "street": "1500 Marina Bay Drive", "latitude": 29.54181753, "image_tag": "<img src=\"http://www.watergatemarina.com/g1data/s101watergate/pgs0/1/tpl7/img/TN/130513587155700001-TR-0450-0000.jpg\" height=\"160\" width=\"250\" />"}},{"geometry": {"type": "Point", "coordinates": [-97.39899155900002, 32.02999608099998]}, "type": "Feature", "id": 83, "properties": {"": "M", "city": "Whitney", "name": "White Bluff Resort & Marina - Lake Whitney", "zip": "76692", "url": "http://www.whitebluffresort.com/Leisure/Marina.aspx", "photo": "http://www.whitebluffresort.com/App_Themes/whitebluff/images/logo_whitebluff.png", "zipcode": 76692.0, "longitude": -97.39899156, "phone": "(888) 944-8325", "state": "TX", "street": "20022 Misty Valley Circle", "latitude": 32.02999608, "image_tag": "<img src=\"http://www.whitebluffresort.com/App_Themes/whitebluff/images/logo_whitebluff.png\" height=\"160\" width=\"250\" />"}}]}